{
  "type":"FeatureCollection",
   "features":[
	{
		"type":"Feature",
		"properties":{
		"name":"jaist の噴水",
		"description":"じゃいの噴水ですよ。"
		},
	"geometry":{
	"type":"Point","color":"red",
	"coordinates":[136.59258,36.44418]
	}
      },
      
     {
	"type":"Feature",
	"properties":{
		"name":"ヤマザキショップ",
		"description":"山崎ショップ."
		
	},
	"geometry":{
	"type":"Point",
	"coordinates":[136.59434,36.44389]
	}
      },

{
	"type":"Feature",
	"properties":{
	"name":"じゃいの図書館",
	"description":"[[https://www.jaist.ac.jp/index.html]]"
	},
	"geometry":{
	"type":"Point",
	"coordinates":[136.59334,36.44389]}},

{
	"type":"Feature",
	"properties":{
	"name":"じゃいの駐車場",
	"description":"安全にとめよう。[[https://www.jaist.ac.jp/index.html]]"
	},
	"geometry":{
	"type":"Point",
	"coordinates":[136.59275,36.44282]}},

{
	"type":"Feature",
	"properties":{
	"name":"じゃいのエントランス",
	"description":"エントランスです。"
	},
	"geometry":{
	"type":"Point",
	"coordinates":[136.59255,36.44475]}},

{
	"type":"Feature",
	"properties":{
	"name":"じゃいの食堂",
	"description":"値段がたかい。"
	},
	"geometry":{
	"type":"Point",
	"coordinates":[136.59289,36.44393]}},

{
	"type":"Feature",
	"properties":{
	"name":"じゃいのテニスコート",
	"description":"運動。"
	},
	"geometry":{
	"type":"Point","coordinates":[136.59478,36.44409]}},

{
	"type":"Feature",
	"properties":{
	"name":"Yuu Yuu",
	"description":"唯一の食堂その2。"
	},
	"geometry":{
	"type":"Point","coordinates":[136.58987,36.44496]}},

{
	"type":"Feature",
	"properties":{
	"name":"じゃいの事務",
	"description":"じゃいの事務よ。"
	},
	"geometry":{
	"type":"Point",
	"coordinates":[136.59383,36.4442]}},

{
	"type":"Feature",
	"properties":{
	"name":"じゃいのVenture business Laboratory",
	"description":"ベンチャービジネスラボラトリ"
	},
	"geometry":{
	"type":"Point",
	"coordinates":[136.59194,36.44335]}},
	{
	"type":"Feature",
	"properties":{
	"name":"StarBED",
	"description":"jaistにあるStarBEDです"
	},
	"geometry":{
	"type":"Point",
	"coordinates":[136.59059,36.44775]}},

{
	"type":"Feature",
	"properties":{
	"name":"NTT",
	"description":"じゃいの隣にあるNTT"
	},
	"geometry":{
	"type":"Point",
	"coordinates":[136.59052,36.44283]}},

{
	"type":"Feature",
	"properties":{
	"name":"じゃいの山",
	"description":"じゃイストのうしろにある山"
	},
	"geometry":{
	"type":"Point",
	"coordinates":[136.59833,36.44366]}},

{
	"type":"Feature",
	"properties":{
	"name":"じゃいのマテリアルサイエンス棟",
	"description":"じゃいのマテ棟"
	},
	"geometry":{
	"type":"Point",
	"coordinates":[136.59372,36.44468]
	}
	},
{
	"type":"Feature",
	"properties":{
	"name":"じゃいの池",
	"description":"なんであるんですかね"
	},
	"geometry":{"type":"Point","coordinates":[136.59376,36.44639]}}


    ]
}
